NMEA,$GNGGA,223728.00,5256.395722,N,00111.050981,W,1,15,0.8,95.1,M,,M,,*49,1742683048014
NMEA,$GNGSA,A,3,3,4,6,7,9,11,20,26,30,,,,1.6,0.8,1.3,1*06,1742683048014
NMEA,$GNGSA,A,3,65,71,72,73,74,87,88,,,,,,1.6,0.8,1.3,2*37,1742683048014
NMEA,$GNGSA,A,3,4,11,27,,,,,,,,,,1.6,0.8,1.3,3*0F,1742683048014
NMEA,$GNGSA,A,3,9,14,16,24,26,27,28,33,39,41,42,,1.6,0.8,1.3,4*06,1742683048014
NMEA,$GPGSV,4,1,12,03,07,106,20,04,43,063,26,06,62,225,23,07,33,156,24,1*64,1742683048014
NMEA,$GPGSV,4,2,12,09,78,083,29,11,51,288,28,20,28,293,29,26,09,039,23,1*66,1742683048014
NMEA,$GPGSV,4,3,12,30,08,182,13,1*52,1742683048014
NMEA,$GPGSV,4,4,12,04,43,063,14,06,62,225,19,09,78,083,20,8*5D,1742683048014
NMEA,$GLGSV,2,1,07,65,32,264,25,71,30,062,28,72,75,002,27,73,28,065,27,1*7A,1742683048014
NMEA,$GLGSV,2,2,07,74,17,112,22,87,40,206,24,88,48,300,30,1*4D,1742683048014
NMEA,$GBGSV,6,1,21,09,35,052,22,14,65,073,16,16,17,034,15,24,19,124,29,1*7F,1742683048014
NMEA,$GBGSV,6,2,21,26,27,071,09,27,33,297,26,28,38,240,26,33,83,300,23,1*78,1742683048014
NMEA,$GBGSV,6,3,21,39,11,031,16,41,31,265,28,42,37,079,24,1*49,1742683048014
NMEA,$GBGSV,6,4,21,24,19,124,26,26,27,071,22,27,33,297,23,28,38,240,26,3*74,1742683048014
NMEA,$GBGSV,6,5,21,33,83,300,20,41,31,265,26,42,37,079,25,3*47,1742683048014
NMEA,$GBGSV,6,6,21,24,19,125,11,28,38,240,21,42,36,079,18,5*49,1742683048014
NMEA,$GAGSV,3,1,05,04,52,224,22,11,60,290,28,27,08,050,20,7*4E,1742683048014
NMEA,$GAGSV,3,2,05,11,,,18,1*78,1742683048014
NMEA,$GAGSV,3,3,05,11,,,,2*73,1742683048014
NMEA,$GNRMC,223728.00,A,5256.395722,N,00111.050981,W,000.2,016.6,220325,,E,A*16,1742683048014
NMEA,$GPPNT,223728.00,N,-424.518274,3,0,0.000000,0*0E,1742683048014
NMEA,$GNGGA,223729.00,5256.395953,N,00111.050842,W,1,14,0.8,96.3,M,,M,,*4E,1742683048998
NMEA,$GNGSA,A,3,3,4,6,7,9,11,20,26,30,,,,1.6,0.8,1.4,1*01,1742683048998
NMEA,$GNGSA,A,3,65,71,72,73,74,87,88,,,,,,1.6,0.8,1.4,2*30,1742683048998
NMEA,$GNGSA,A,3,4,11,27,,,,,,,,,,1.6,0.8,1.4,3*08,1742683048998
NMEA,$GNGSA,A,3,9,14,16,24,26,27,28,33,39,41,42,45,1.6,0.8,1.4,4*00,1742683048998
NMEA,$GPGSV,4,1,12,03,07,106,20,04,43,063,27,06,62,225,24,07,34,156,20,1*61,1742683048998
NMEA,$GPGSV,4,2,12,09,78,083,28,11,51,288,27,20,28,293,30,26,09,039,22,1*61,1742683048998
NMEA,$GPGSV,4,3,12,30,08,182,14,1*55,1742683048998
NMEA,$GPGSV,4,4,12,04,43,063,14,06,62,225,17,09,78,083,21,8*52,1742683048998
NMEA,$GLGSV,2,1,07,65,32,264,26,71,30,062,28,72,75,002,25,73,28,065,25,1*79,1742683048998
NMEA,$GLGSV,2,2,07,74,17,112,20,87,40,206,21,88,48,300,29,1*42,1742683048998
NMEA,$GBGSV,6,1,23,09,35,052,21,14,65,073,16,16,17,034,11,24,19,124,28,1*7B,1742683048998
NMEA,$GBGSV,6,2,23,26,27,071,09,27,33,297,27,28,38,240,26,33,83,300,23,1*7B,1742683048998
NMEA,$GBGSV,6,3,23,39,11,031,09,41,31,265,29,42,37,079,26,45,06,020,20,1*71,1742683048998
NMEA,$GBGSV,6,4,23,24,19,124,24,26,27,071,21,27,33,297,24,28,38,240,26,3*70,1742683048998
NMEA,$GBGSV,6,5,23,33,83,300,21,41,31,265,27,42,37,079,25,3*45,1742683048998
NMEA,$GBGSV,6,6,23,24,19,125,17,28,38,240,23,41,31,265,19,42,36,079,19,5*70,1742683048998
NMEA,$GAGSV,3,1,05,04,52,224,24,11,60,290,28,27,08,050,19,7*42,1742683048998
NMEA,$GAGSV,3,2,05,11,,,20,1*73,1742683048998
NMEA,$GAGSV,3,3,05,11,,,,2*73,1742683048998
NMEA,$GNRMC,223729.00,A,5256.395953,N,00111.050842,W,000.2,016.6,220325,,E,A*11,1742683048998
NMEA,$GPPNT,223729.00,N,-423.825406,3,0,0.000000,0*08,1742683048998
NMEA,$GNGGA,223730.00,5256.396701,N,00111.050231,W,1,17,0.8,96.4,M,,M,,*46,1742683050011
NMEA,$GNGSA,A,3,3,4,6,7,9,11,20,26,30,,,,1.5,0.8,1.3,1*05,1742683050011
NMEA,$GNGSA,A,3,65,71,72,73,74,87,88,,,,,,1.5,0.8,1.3,2*34,1742683050011
NMEA,$GNGSA,A,3,4,11,27,,,,,,,,,,1.5,0.8,1.3,3*0C,1742683050011
NMEA,$GNGSA,A,3,9,14,16,24,26,27,28,33,39,41,42,45,1.5,0.8,1.3,4*04,1742683050011
NMEA,$GPGSV,4,1,12,03,07,106,21,04,43,063,25,06,62,225,24,07,34,156,21,1*63,1742683050011
NMEA,$GPGSV,4,2,12,09,78,083,28,11,51,288,27,20,28,293,29,26,09,039,23,1*68,1742683050011
NMEA,$GPGSV,4,3,12,30,08,182,15,1*54,1742683050011
NMEA,$GPGSV,4,4,12,04,43,063,13,06,62,225,15,09,78,083,21,8*57,1742683050011
NMEA,$GLGSV,2,1,07,65,32,264,26,71,30,062,28,72,75,002,24,73,28,065,25,1*78,1742683050011
NMEA,$GLGSV,2,2,07,74,17,112,22,87,40,206,21,88,48,300,28,1*41,1742683050011
NMEA,$GBGSV,7,1,25,09,35,052,20,14,65,073,16,16,17,034,10,24,19,124,28,1*7C,1742683050011
NMEA,$GBGSV,7,2,25,26,27,071,09,27,33,297,26,28,38,240,26,33,83,300,24,1*7A,1742683050011
NMEA,$GBGSV,7,3,25,39,11,031,10,41,31,265,28,42,37,079,27,45,06,020,16,1*7B,1742683050011
NMEA,$GBGSV,7,4,25,24,19,124,24,26,27,071,24,27,33,297,24,28,38,240,26,3*72,1742683050011
NMEA,$GBGSV,7,5,25,33,83,300,21,39,11,031,19,41,31,265,28,42,37,079,25,3*7D,1742683050011
NMEA,$GBGSV,7,6,25,24,19,125,18,27,33,297,19,28,38,240,20,41,31,265,13,5*75,1742683050011
NMEA,$GBGSV,7,7,25,42,36,079,20,5*4A,1742683050011
NMEA,$GAGSV,3,1,05,04,52,224,22,11,60,290,27,27,08,050,19,7*4B,1742683050011
NMEA,$GAGSV,3,2,05,11,,,20,1*73,1742683050011
NMEA,$GAGSV,3,3,05,11,,,,2*73,1742683050011
NMEA,$GNRMC,223730.00,A,5256.396701,N,00111.050231,W,000.3,016.6,220325,,E,A*1C,1742683050011
NMEA,$GPPNT,223730.00,N,-424.786636,3,0,0.000000,0*00,1742683050011
NMEA,$GNGGA,223731.00,5256.397464,N,00111.050674,W,1,17,0.8,93.4,M,,M,,*46,1742683051001
NMEA,$GNGSA,A,3,3,4,6,7,9,11,20,26,30,,,,1.6,0.8,1.4,1*01,1742683051001
NMEA,$GNGSA,A,3,65,71,72,73,74,87,88,,,,,,1.6,0.8,1.4,2*30,1742683051001
NMEA,$GNGSA,A,3,4,11,27,,,,,,,,,,1.6,0.8,1.4,3*08,1742683051001
NMEA,$GNGSA,A,3,9,14,16,24,26,27,28,33,39,41,42,45,1.6,0.8,1.4,4*00,1742683051001
NMEA,$GPGSV,4,1,12,03,07,106,21,04,43,063,26,06,62,225,24,07,34,156,20,1*61,1742683051001
NMEA,$GPGSV,4,2,12,09,78,083,27,11,51,288,27,20,28,293,30,26,09,039,23,1*6F,1742683051001
NMEA,$GPGSV,4,3,12,30,08,182,16,1*57,1742683051001
NMEA,$GPGSV,4,4,12,04,43,063,12,06,62,225,11,09,78,083,20,8*53,1742683051001
NMEA,$GLGSV,2,1,07,65,32,264,26,71,30,062,28,72,75,002,24,73,28,065,25,1*78,1742683051001
NMEA,$GLGSV,2,2,07,74,17,112,21,87,40,206,23,88,48,300,28,1*40,1742683051001
NMEA,$GBGSV,7,1,25,09,35,052,22,14,65,073,16,16,17,034,11,24,19,124,28,1*7F,1742683051001
NMEA,$GBGSV,7,2,25,26,27,071,09,27,33,297,26,28,38,240,26,33,83,300,25,1*7B,1742683051001
NMEA,$GBGSV,7,3,25,39,11,031,10,41,31,265,29,42,36,079,28,45,06,020,16,1*74,1742683051001
NMEA,$GBGSV,7,4,25,24,19,124,25,26,27,071,23,27,33,297,24,28,38,240,26,3*74,1742683051001
NMEA,$GBGSV,7,5,25,33,83,300,20,39,11,031,17,41,31,265,28,42,36,079,27,3*71,1742683051001
NMEA,$GBGSV,7,6,25,24,19,125,18,27,33,297,14,28,38,240,22,41,31,265,15,5*7C,1742683051001
NMEA,$GBGSV,7,7,25,42,36,079,20,5*4A,1742683051001
NMEA,$GAGSV,3,1,05,04,52,224,22,11,60,290,26,27,08,050,18,7*4B,1742683051001
NMEA,$GAGSV,3,2,05,11,,,20,1*73,1742683051001
NMEA,$GAGSV,3,3,05,11,,,,2*73,1742683051001
NMEA,$GNRMC,223731.00,A,5256.397464,N,00111.050674,W,000.5,016.6,220325,,E,A*1F,1742683051001
NMEA,$GPPNT,223731.00,N,-427.987928,3,0,0.000000,0*0D,1742683051001
NMEA,$GNGGA,223732.00,5256.397342,N,00111.051167,W,1,16,0.8,92.9,M,,M,,*4F,1742683051992
NMEA,$GNGSA,A,3,3,4,6,7,9,11,20,26,30,,,,1.6,0.8,1.5,1*00,1742683051992
NMEA,$GNGSA,A,3,65,71,72,73,74,87,88,,,,,,1.6,0.8,1.5,2*31,1742683051992
NMEA,$GNGSA,A,3,4,11,27,,,,,,,,,,1.6,0.8,1.5,3*09,1742683051992
NMEA,$GNGSA,A,3,9,14,16,24,26,27,28,33,39,41,42,45,1.6,0.8,1.5,4*01,1742683051992
NMEA,$GPGSV,4,1,12,03,07,106,22,04,43,063,25,06,62,225,24,07,34,156,21,1*60,1742683051992
NMEA,$GPGSV,4,2,12,09,77,082,27,11,51,288,26,20,28,293,29,26,09,039,23,1*68,1742683051992
NMEA,$GPGSV,4,3,12,30,08,182,16,1*57,1742683051992
NMEA,$GPGSV,4,4,12,04,43,063,13,06,62,225,09,09,77,082,21,8*54,1742683051992
NMEA,$GLGSV,2,1,07,65,32,264,25,71,30,062,28,72,75,002,22,73,28,065,26,1*7E,1742683051992
NMEA,$GLGSV,2,2,07,74,17,112,21,87,40,206,24,88,48,300,27,1*48,1742683051992
NMEA,$GBGSV,7,1,26,09,35,052,22,14,65,073,15,16,17,034,10,24,19,124,27,1*71,1742683051992
NMEA,$GBGSV,7,2,26,26,27,071,09,27,33,297,26,28,38,240,26,33,83,300,24,1*79,1742683051992
NMEA,$GBGSV,7,3,26,39,11,031,11,41,31,265,28,42,36,079,27,45,06,020,15,1*7B,1742683051992
NMEA,$GBGSV,7,4,26,24,19,124,25,26,27,071,24,27,33,297,24,28,38,240,25,3*73,1742683051992
NMEA,$GBGSV,7,5,26,33,83,300,21,39,11,031,16,41,31,265,28,42,36,079,26,3*73,1742683051992
NMEA,$GBGSV,7,6,26,24,19,124,18,26,27,071,18,27,33,297,12,28,38,240,22,5*74,1742683051992
NMEA,$GBGSV,7,7,26,41,31,265,15,42,36,079,19,5*71,1742683051992
NMEA,$GAGSV,3,1,05,04,52,224,23,11,60,290,27,27,08,050,17,7*44,1742683051992
NMEA,$GAGSV,3,2,05,11,,,21,1*72,1742683051992
NMEA,$GAGSV,3,3,05,11,,,,2*73,1742683051992
NMEA,$GNRMC,223732.00,A,5256.397342,N,00111.051167,W,000.6,016.6,220325,,E,A*18,1742683051992
NMEA,$GPPNT,223732.00,N,-428.523299,3,0,0.000000,0*02,1742683051992
NMEA,$GNGGA,223733.00,5256.397111,N,00111.051355,W,1,14,0.8,92.1,M,,M,,*43,1742683052979
NMEA,$GNGSA,A,3,3,4,6,7,9,11,20,26,30,,,,1.7,0.8,1.4,1*00,1742683052979
NMEA,$GNGSA,A,3,65,71,72,73,74,87,88,,,,,,1.7,0.8,1.4,2*31,1742683052979
NMEA,$GNGSA,A,3,4,11,27,,,,,,,,,,1.7,0.8,1.4,3*09,1742683052979
NMEA,$GNGSA,A,3,9,14,16,24,26,27,28,33,39,41,42,45,1.7,0.8,1.4,4*01,1742683052979
NMEA,$GPGSV,4,1,12,03,07,106,22,04,43,063,25,06,62,225,23,07,34,156,22,1*64,1742683052979
NMEA,$GPGSV,4,2,12,09,77,082,27,11,51,288,24,20,28,293,30,26,09,039,21,1*60,1742683052979
NMEA,$GPGSV,4,3,12,30,08,182,17,1*56,1742683052979
NMEA,$GPGSV,4,4,12,04,43,063,12,06,62,225,09,09,77,082,20,8*54,1742683052979
NMEA,$GLGSV,2,1,07,65,32,264,26,71,30,062,27,72,75,002,23,73,28,065,25,1*70,1742683052979
NMEA,$GLGSV,2,2,07,74,17,112,21,87,40,206,23,88,48,300,26,1*4E,1742683052979
NMEA,$GBGSV,7,1,26,09,35,052,20,14,65,073,12,16,17,034,10,24,19,124,26,1*75,1742683052979
NMEA,$GBGSV,7,2,26,26,27,071,09,27,33,297,27,28,38,240,25,33,83,300,24,1*7B,1742683052979
NMEA,$GBGSV,7,3,26,39,11,031,12,41,31,265,28,42,36,079,27,45,06,020,16,1*7B,1742683052979
NMEA,$GBGSV,7,4,26,24,19,124,23,26,27,071,23,27,33,297,23,28,38,240,26,3*76,1742683052979
NMEA,$GBGSV,7,5,26,33,83,300,20,39,11,031,18,41,31,265,28,42,36,079,27,3*7D,1742683052979
NMEA,$GBGSV,7,6,26,24,19,124,18,26,27,071,14,27,33,297,13,28,38,240,21,5*7A,1742683052979
NMEA,$GBGSV,7,7,26,41,31,265,15,42,36,079,19,5*71,1742683052979
NMEA,$GAGSV,3,1,05,04,52,224,21,11,60,290,26,27,08,050,16,7*46,1742683052979
NMEA,$GAGSV,3,2,05,11,,,21,1*72,1742683052979
NMEA,$GAGSV,3,3,05,11,,,,2*73,1742683052979
NMEA,$GNRMC,223733.00,A,5256.397111,N,00111.051355,W,000.6,016.6,220325,,E,A*1E,1742683052979
NMEA,$GPPNT,223733.00,N,-428.754908,3,0,0.000000,0*02,1742683052979
NMEA,$GNGGA,223734.00,5256.396581,N,00111.052034,W,1,16,0.8,91.7,M,,M,,*48,1742683053998
NMEA,$GNGSA,A,3,3,4,6,7,9,11,16,20,26,30,,,1.7,0.8,1.6,1*05,1742683053998
NMEA,$GNGSA,A,3,65,71,72,73,74,87,88,,,,,,1.7,0.8,1.6,2*33,1742683053998
NMEA,$GNGSA,A,3,4,11,27,,,,,,,,,,1.7,0.8,1.6,3*0B,1742683053998
NMEA,$GNGSA,A,3,9,14,16,24,26,27,28,33,39,41,42,45,1.7,0.8,1.6,4*03,1742683053998
NMEA,$GPGSV,4,1,13,03,07,106,24,04,43,063,23,06,62,225,25,07,34,156,24,1*65,1742683053998
NMEA,$GPGSV,4,2,13,09,77,082,27,11,51,288,27,16,05,065,20,20,28,293,30,1*65,1742683053998
NMEA,$GPGSV,4,3,13,26,09,039,20,30,08,182,18,1*6D,1742683053998
NMEA,$GPGSV,4,4,13,04,43,063,11,06,62,225,09,09,77,082,21,8*57,1742683053998
NMEA,$GLGSV,2,1,07,65,32,264,27,71,30,062,25,72,75,002,21,73,28,065,26,1*72,1742683053998
NMEA,$GLGSV,2,2,07,74,17,112,18,87,40,206,20,88,48,300,26,1*47,1742683053998
NMEA,$GBGSV,7,1,26,09,35,052,18,14,65,073,11,16,17,034,09,24,19,124,24,1*77,1742683053998
NMEA,$GBGSV,7,2,26,26,27,071,09,27,33,297,27,28,38,240,27,33,83,300,25,1*78,1742683053998
NMEA,$GBGSV,7,3,26,39,11,031,13,41,31,265,29,42,36,079,27,45,06,020,15,1*78,1742683053998
NMEA,$GBGSV,7,4,26,24,19,124,14,26,27,071,24,27,33,297,23,28,38,240,26,3*75,1742683053998
NMEA,$GBGSV,7,5,26,33,83,300,22,39,11,031,18,41,31,265,29,42,36,079,25,3*7C,1742683053998
NMEA,$GBGSV,7,6,26,24,19,124,18,26,27,071,15,27,33,297,14,28,38,240,18,5*76,1742683053998
NMEA,$GBGSV,7,7,26,41,31,265,16,42,36,079,20,5*78,1742683053998
NMEA,$GAGSV,3,1,05,04,52,224,22,11,60,290,23,27,08,050,15,7*43,1742683053998
NMEA,$GAGSV,3,2,05,11,,,20,1*73,1742683053998
NMEA,$GAGSV,3,3,05,11,,,,2*73,1742683053998
NMEA,$GNRMC,223734.00,A,5256.396581,N,00111.052034,W,000.6,016.6,220325,,E,A*12,1742683053998
NMEA,$GPPNT,223734.00,N,-430.113765,3,0,0.000000,0*0C,1742683053998
NMEA,$GNGGA,223735.00,5256.396519,N,00111.052538,W,1,15,0.8,90.7,M,,M,,*43,1742683054998
NMEA,$GNGSA,A,3,3,4,6,7,9,11,16,20,26,30,,,1.8,0.8,1.6,1*0A,1742683054998
NMEA,$GNGSA,A,3,65,71,72,73,74,87,88,,,,,,1.8,0.8,1.6,2*3C,1742683054998
NMEA,$GNGSA,A,3,4,11,27,,,,,,,,,,1.8,0.8,1.6,3*04,1742683054998
NMEA,$GNGSA,A,3,9,14,16,24,26,27,28,33,39,41,42,45,1.8,0.8,1.6,4*0C,1742683054998
NMEA,$GPGSV,4,1,12,03,07,106,23,04,43,063,23,06,62,225,26,07,34,156,25,1*61,1742683054998
NMEA,$GPGSV,4,2,12,09,77,082,28,11,51,288,29,16,05,065,26,20,28,293,29,1*6B,1742683054998
NMEA,$GPGSV,4,3,12,26,09,039,09,30,08,182,17,1*68,1742683054998
NMEA,$GPGSV,4,4,12,04,43,063,10,09,77,082,24,8*6C,1742683054998
NMEA,$GLGSV,2,1,07,65,32,264,31,71,30,062,16,72,75,002,23,73,28,065,25,1*74,1742683054998
NMEA,$GLGSV,2,2,07,74,17,112,17,87,40,206,14,88,48,300,30,1*48,1742683054998
NMEA,$GBGSV,7,1,26,09,35,052,15,14,65,073,11,16,17,034,09,24,20,124,15,1*72,1742683054998
NMEA,$GBGSV,7,2,26,26,27,071,09,27,33,297,25,28,38,240,28,33,83,300,26,1*76,1742683054998
NMEA,$GBGSV,7,3,26,39,11,031,14,41,31,265,32,42,36,079,26,45,06,020,15,1*74,1742683054998
NMEA,$GBGSV,7,4,26,24,20,124,12,26,27,071,24,27,33,297,24,28,38,240,27,3*7F,1742683054998
NMEA,$GBGSV,7,5,26,33,83,300,21,39,11,031,19,41,31,265,33,42,36,079,23,3*73,1742683054998
NMEA,$GBGSV,7,6,26,24,19,124,18,26,27,071,14,27,33,297,14,28,38,240,16,5*79,1742683054998
NMEA,$GBGSV,7,7,26,41,31,265,16,42,36,079,20,5*78,1742683054998
NMEA,$GAGSV,3,1,05,04,53,224,25,11,60,290,22,27,08,050,16,7*47,1742683054998
NMEA,$GAGSV,3,2,05,11,,,20,1*73,1742683054998
NMEA,$GAGSV,3,3,05,11,60,290,09,2*47,1742683054998
NMEA,$GNRMC,223735.00,A,5256.396519,N,00111.052538,W,000.5,016.6,220325,,E,A*18,1742683054998
NMEA,$GPPNT,223735.00,N,-431.137666,3,0,0.000000,0*08,1742683054998
NMEA,$GNGGA,223736.00,5256.396380,N,00111.052955,W,1,16,0.8,90.8,M,,M,,*4D,1742683055999
NMEA,$GNGSA,A,3,36,4,6,7,9,11,16,20,26,30,,,1.6,0.8,1.4,1*30,1742683055999
NMEA,$GNGSA,A,3,65,71,72,73,74,87,88,,,,,,1.6,0.8,1.4,2*30,1742683055999
NMEA,$GNGSA,A,3,4,11,27,,,,,,,,,,1.6,0.8,1.4,3*08,1742683055999
NMEA,$GNGSA,A,3,9,14,16,24,26,27,28,33,39,41,42,45,1.6,0.8,1.4,4*00,1742683055999
NMEA,$GPGSV,5,1,14,03,07,106,22,04,43,063,23,06,62,225,25,07,34,156,26,1*67,1742683055999
NMEA,$GPGSV,5,2,14,09,77,082,29,11,51,288,30,16,05,065,28,20,28,293,27,1*65,1742683055999
NMEA,$GPGSV,5,3,14,26,09,039,09,30,08,182,17,1*6F,1742683055999
NMEA,$GPGSV,5,4,14,36,,,33,1*65,1742683055999
NMEA,$GPGSV,5,5,14,03,07,106,19,04,43,063,10,09,77,082,24,8*51,1742683055999
NMEA,$GLGSV,2,1,07,65,32,264,30,71,30,062,16,72,75,002,24,73,28,065,25,1*72,1742683055999
NMEA,$GLGSV,2,2,07,74,17,112,17,87,40,206,17,88,48,300,31,1*4A,1742683055999
NMEA,$GBGSV,7,1,26,09,35,052,13,14,65,073,11,16,17,034,09,24,20,124,18,1*79,1742683055999
NMEA,$GBGSV,7,2,26,26,27,071,09,27,33,297,23,28,38,240,27,33,83,300,25,1*7C,1742683055999
NMEA,$GBGSV,7,3,26,39,11,031,16,41,31,265,32,42,36,079,26,45,06,020,14,1*77,1742683055999
NMEA,$GBGSV,7,4,26,24,20,124,10,26,27,071,24,27,33,297,22,28,38,240,26,3*7A,1742683055999
NMEA,$GBGSV,7,5,26,33,83,300,22,39,11,031,19,41,31,265,33,42,36,079,22,3*71,1742683055999
NMEA,$GBGSV,7,6,26,24,19,124,17,26,27,071,13,27,33,297,14,28,38,240,17,5*70,1742683055999
NMEA,$GBGSV,7,7,26,41,31,265,16,42,36,079,20,5*78,1742683055999
NMEA,$GAGSV,3,1,05,04,53,224,28,11,60,290,22,27,08,050,17,7*4B,1742683055999
NMEA,$GAGSV,3,2,05,11,,,19,1*79,1742683055999
NMEA,$GAGSV,3,3,05,11,60,290,09,2*47,1742683055999
NMEA,$GNRMC,223736.00,A,5256.396380,N,00111.052955,W,000.2,016.6,220325,,E,A*1D,1742683055999
NMEA,$GPPNT,223736.00,N,-431.144099,3,0,0.000000,0*09,1742683055999
NMEA,$GNGGA,223737.00,5256.396289,N,00111.053042,W,1,17,0.8,91.3,M,,M,,*41,1742683056997
NMEA,$GNGSA,A,3,36,4,6,7,9,11,16,20,26,30,,,1.5,0.8,1.3,1*34,1742683056997
NMEA,$GNGSA,A,3,65,71,72,73,74,87,88,,,,,,1.5,0.8,1.3,2*34,1742683056997
NMEA,$GNGSA,A,3,4,11,27,,,,,,,,,,1.5,0.8,1.3,3*0C,1742683056997
NMEA,$GNGSA,A,3,9,14,16,24,26,27,28,33,39,41,42,45,1.5,0.8,1.3,4*04,1742683056997
NMEA,$GPGSV,5,1,14,03,07,106,23,04,43,063,23,06,62,225,26,07,34,156,26,1*65,1742683056997
NMEA,$GPGSV,5,2,14,09,77,082,29,11,51,288,29,16,05,065,28,20,28,293,27,1*6D,1742683056997
NMEA,$GPGSV,5,3,14,26,09,039,10,30,08,182,17,1*67,1742683056997
NMEA,$GPGSV,5,4,14,36,,,33,1*65,1742683056997
NMEA,$GPGSV,5,5,14,03,07,106,18,04,43,063,09,09,77,082,21,8*5D,1742683056997
NMEA,$GLGSV,2,1,07,65,32,264,31,71,30,062,15,72,75,002,23,73,28,065,24,1*76,1742683056997
NMEA,$GLGSV,2,2,07,74,17,112,18,87,40,206,17,88,48,300,31,1*45,1742683056997
NMEA,$GBGSV,7,1,26,09,35,052,13,14,65,073,13,16,17,034,09,24,20,124,18,1*7B,1742683056997
NMEA,$GBGSV,7,2,26,26,27,071,09,27,33,297,23,28,38,240,27,33,83,300,25,1*7C,1742683056997
NMEA,$GBGSV,7,3,26,39,11,031,18,41,31,265,32,42,36,079,25,45,06,020,13,1*7D,1742683056997
NMEA,$GBGSV,7,4,26,24,20,124,12,26,27,071,25,27,33,297,22,28,38,240,27,3*78,1742683056997
NMEA,$GBGSV,7,5,26,33,83,300,22,39,11,031,20,41,31,265,33,42,36,079,23,3*7A,1742683056997
NMEA,$GBGSV,7,6,26,24,19,124,16,26,27,071,13,27,33,297,15,28,38,240,16,5*71,1742683056997
NMEA,$GBGSV,7,7,26,41,31,265,16,42,36,079,20,5*78,1742683056997
NMEA,$GAGSV,3,1,05,04,53,224,28,11,60,290,21,27,08,050,17,7*48,1742683056997
NMEA,$GAGSV,3,2,05,11,,,18,1*78,1742683056997
NMEA,$GAGSV,3,3,05,11,60,290,11,2*4E,1742683056997
NMEA,$GNRMC,223737.00,A,5256.396289,N,00111.053042,W,000.3,016.6,220325,,E,A*1B,1742683056997
NMEA,$GPPNT,223737.00,N,-430.727546,3,0,0.000000,0*0D,1742683056997
NMEA,$GNGGA,223738.00,5256.396437,N,00111.052993,W,1,17,0.8,91.7,M,,M,,*4D,1742683057998
NMEA,$GNGSA,A,3,36,4,6,7,9,11,16,20,26,30,,,1.5,0.8,1.3,1*34,1742683057998
NMEA,$GNGSA,A,3,65,71,72,73,74,87,88,,,,,,1.5,0.8,1.3,2*34,1742683057998
NMEA,$GNGSA,A,3,4,11,27,,,,,,,,,,1.5,0.8,1.3,3*0C,1742683057998
NMEA,$GNGSA,A,3,9,14,16,24,26,27,28,33,39,41,42,45,1.5,0.8,1.3,4*04,1742683057998
NMEA,$GPGSV,5,1,15,03,07,106,23,04,43,063,24,06,62,225,26,07,34,156,26,1*63,1742683057998
NMEA,$GPGSV,5,2,15,09,77,082,29,11,51,288,29,16,05,065,27,20,28,293,28,1*6C,1742683057998
NMEA,$GPGSV,5,3,15,26,09,039,12,30,08,182,16,1*65,1742683057998
NMEA,$GPGSV,5,4,15,36,,,29,1*6F,1742683057998
NMEA,$GPGSV,5,5,15,03,07,106,19,04,43,063,09,06,62,225,20,09,77,082,22,8*6B,1742683057998
NMEA,$GLGSV,2,1,07,65,32,264,31,71,30,062,14,72,75,002,24,73,28,065,25,1*71,1742683057998
NMEA,$GLGSV,2,2,07,74,17,112,17,87,40,206,18,88,48,300,30,1*44,1742683057998
NMEA,$GBGSV,7,1,27,09,35,052,12,14,65,073,15,16,17,034,09,24,20,124,18,1*7D,1742683057998
NMEA,$GBGSV,7,2,27,26,27,071,25,27,33,297,23,28,38,240,27,33,83,300,26,1*70,1742683057998
NMEA,$GBGSV,7,3,27,39,11,031,18,41,31,265,32,42,36,079,24,45,06,020,12,1*7C,1742683057998
NMEA,$GBGSV,7,4,27,24,20,124,12,26,27,071,25,27,33,297,21,28,38,240,28,3*75,1742683057998
NMEA,$GBGSV,7,5,27,33,83,300,22,39,11,031,20,41,31,265,33,42,36,079,23,3*7B,1742683057998
NMEA,$GBGSV,7,6,27,24,19,124,17,26,27,071,13,27,33,297,15,28,38,240,15,5*72,1742683057998
NMEA,$GBGSV,7,7,27,33,83,300,18,41,31,265,16,42,36,079,21,5*49,1742683057998
NMEA,$GAGSV,3,1,05,04,53,224,28,11,60,290,22,27,08,050,18,7*44,1742683057998
NMEA,$GAGSV,3,2,05,11,,,17,1*77,1742683057998
NMEA,$GAGSV,3,3,05,11,60,290,09,2*47,1742683057998
NMEA,$GNRMC,223738.00,A,5256.396437,N,00111.052993,W,000.4,016.6,220325,,E,A*14,1742683057998
NMEA,$GPPNT,223738.00,N,-431.754773,3,0,0.000000,0*03,1742683057998
NMEA,$GNGGA,223739.00,5256.396630,N,00111.053063,W,1,16,0.8,91.6,M,,M,,*4E,1742683058999
NMEA,$GNGSA,A,3,36,4,6,7,9,11,16,20,26,30,,,1.6,0.8,1.3,1*37,1742683058999
NMEA,$GNGSA,A,3,65,71,72,73,74,87,88,,,,,,1.6,0.8,1.3,2*37,1742683058999
NMEA,$GNGSA,A,3,4,11,27,,,,,,,,,,1.6,0.8,1.3,3*0F,1742683058999
NMEA,$GNGSA,A,3,9,14,16,24,26,27,28,33,39,41,42,45,1.6,0.8,1.3,4*07,1742683058999
NMEA,$GPGSV,5,1,15,03,07,106,24,04,43,063,24,06,62,225,25,07,34,156,26,1*67,1742683058999
NMEA,$GPGSV,5,2,15,09,77,082,29,11,51,288,28,16,05,065,27,20,28,293,27,1*62,1742683058999
NMEA,$GPGSV,5,3,15,26,09,039,12,30,08,182,15,1*66,1742683058999
NMEA,$GPGSV,5,4,15,36,,,29,1*6F,1742683058999
NMEA,$GPGSV,5,5,15,03,07,106,18,04,43,063,09,06,62,225,17,09,77,082,20,8*6C,1742683058999
NMEA,$GLGSV,2,1,07,65,32,264,32,71,30,062,14,72,75,002,24,73,28,065,24,1*73,1742683058999
NMEA,$GLGSV,2,2,07,74,17,112,18,87,40,206,18,88,48,300,30,1*4B,1742683058999
NMEA,$GBGSV,7,1,27,09,35,052,09,14,65,073,17,16,17,034,09,24,20,124,18,1*75,1742683058999
NMEA,$GBGSV,7,2,27,26,27,071,22,27,33,297,24,28,38,240,26,33,83,300,26,1*71,1742683058999
NMEA,$GBGSV,7,3,27,39,11,031,19,41,31,265,32,42,36,079,25,45,06,020,11,1*7F,1742683058999
NMEA,$GBGSV,7,4,27,24,20,124,12,26,27,071,24,27,33,297,20,28,38,240,28,3*75,1742683058999
NMEA,$GBGSV,7,5,27,33,83,300,22,39,11,031,20,41,31,265,33,42,36,079,25,3*7D,1742683058999
NMEA,$GBGSV,7,6,27,24,19,124,17,26,27,071,13,27,33,297,15,28,38,240,13,5*74,1742683058999
NMEA,$GBGSV,7,7,27,33,83,300,16,41,31,265,15,42,36,079,21,5*44,1742683058999
NMEA,$GAGSV,3,1,05,04,53,224,28,11,60,290,23,27,08,050,19,7*44,1742683058999
NMEA,$GAGSV,3,2,05,11,,,15,1*75,1742683058999
NMEA,$GAGSV,3,3,05,11,60,290,09,2*47,1742683058999
NMEA,$GNRMC,223739.00,A,5256.396630,N,00111.053063,W,000.2,016.6,220325,,E,A*11,1742683058999
NMEA,$GPPNT,223739.00,N,-432.466097,3,0,0.000000,0*0E,1742683058999
NMEA,$GNGGA,223740.00,5256.396757,N,00111.053449,W,1,15,0.9,91.4,M,,M,,*4C,1742683059999
NMEA,$GNGSA,A,3,36,4,6,7,9,11,16,20,26,30,,,1.7,0.9,1.5,1*31,1742683059999
NMEA,$GNGSA,A,3,65,71,72,73,74,87,88,,,,,,1.7,0.9,1.5,2*31,1742683059999
NMEA,$GNGSA,A,3,4,11,27,,,,,,,,,,1.7,0.9,1.5,3*09,1742683059999
NMEA,$GNGSA,A,3,9,14,16,24,26,27,28,33,39,41,42,45,1.7,0.9,1.5,4*01,1742683059999
NMEA,$GPGSV,5,1,14,03,07,106,23,04,43,063,23,06,62,225,25,07,34,156,25,1*65,1742683059999
NMEA,$GPGSV,5,2,14,09,77,082,28,11,51,288,27,16,05,065,27,20,28,293,27,1*6D,1742683059999
NMEA,$GPGSV,5,3,14,26,09,039,15,30,08,182,14,1*61,1742683059999
NMEA,$GPGSV,5,4,14,36,,,29,1*6E,1742683059999
NMEA,$GPGSV,5,5,14,03,07,106,17,06,62,225,09,09,77,082,22,8*50,1742683059999
NMEA,$GLGSV,2,1,07,65,32,264,32,71,30,062,14,72,75,002,24,73,28,065,26,1*71,1742683059999
NMEA,$GLGSV,2,2,07,74,17,112,18,87,40,206,18,88,48,300,30,1*4B,1742683059999
NMEA,$GBGSV,7,1,27,09,35,052,10,14,65,073,17,16,17,034,09,24,20,124,18,1*7D,1742683059999
NMEA,$GBGSV,7,2,27,26,27,071,23,27,33,297,25,28,38,240,26,33,83,300,26,1*71,1742683059999
NMEA,$GBGSV,7,3,27,39,11,031,20,41,31,265,31,42,36,079,23,45,06,020,10,1*71,1742683059999
NMEA,$GBGSV,7,4,27,24,20,124,11,26,27,071,24,27,33,297,22,28,38,240,28,3*74,1742683059999
NMEA,$GBGSV,7,5,27,33,83,300,23,39,11,031,20,41,31,265,34,42,36,079,25,3*7B,1742683059999
NMEA,$GBGSV,7,6,27,24,19,124,16,26,27,071,13,27,33,297,15,28,38,240,13,5*75,1742683059999
NMEA,$GBGSV,7,7,27,33,83,300,12,41,31,265,13,42,36,079,21,5*46,1742683059999
NMEA,$GAGSV,3,1,05,04,53,224,25,11,60,290,24,27,08,050,19,7*4E,1742683059999
NMEA,$GAGSV,3,2,05,11,,,15,1*75,1742683059999
NMEA,$GAGSV,3,3,05,11,60,290,09,2*47,1742683059999
NMEA,$GNRMC,223740.00,A,5256.396757,N,00111.053449,W,000.7,016.6,220325,,E,A*16,1742683059999
NMEA,$GPPNT,223740.00,N,-433.036825,3,0,0.000000,0*01,1742683059999
NMEA,$GNGGA,223741.00,5256.396713,N,00111.053938,W,1,18,0.8,91.1,M,,M,,*4F,1742683060999
NMEA,$GNGSA,A,3,36,4,6,7,9,11,16,20,26,30,,,1.5,0.8,1.3,1*34,1742683060999
NMEA,$GNGSA,A,3,65,71,72,73,74,87,88,,,,,,1.5,0.8,1.3,2*34,1742683060999
NMEA,$GNGSA,A,3,4,11,27,36,,,,,,,,,1.5,0.8,1.3,3*09,1742683060999
NMEA,$GNGSA,A,3,9,14,16,24,26,27,28,33,39,41,42,45,1.5,0.8,1.3,4*04,1742683060999
NMEA,$GPGSV,5,1,14,03,07,106,22,04,43,063,22,06,62,225,26,07,34,156,26,1*65,1742683060999
NMEA,$GPGSV,5,2,14,09,77,082,29,11,51,288,28,16,05,065,27,20,28,293,27,1*63,1742683060999
NMEA,$GPGSV,5,3,14,26,09,039,15,30,08,182,13,1*66,1742683060999
NMEA,$GPGSV,5,4,14,36,,,29,1*6E,1742683060999
NMEA,$GPGSV,5,5,14,03,07,106,17,06,62,225,14,09,77,082,21,8*5F,1742683060999
NMEA,$GLGSV,2,1,07,65,32,264,32,71,30,062,15,72,75,002,23,73,28,064,24,1*74,1742683060999
NMEA,$GLGSV,2,2,07,74,17,112,18,87,40,206,18,88,48,300,30,1*4B,1742683060999
NMEA,$GBGSV,7,1,27,09,35,052,13,14,65,073,18,16,17,034,09,24,20,124,17,1*7E,1742683060999
NMEA,$GBGSV,7,2,27,26,27,071,22,27,33,297,24,28,38,240,27,33,83,300,26,1*70,1742683060999
NMEA,$GBGSV,7,3,27,39,11,031,19,41,31,265,32,42,36,079,24,45,06,020,10,1*7F,1742683060999
NMEA,$GBGSV,7,4,27,24,20,124,13,26,27,071,24,27,33,297,22,28,38,240,28,3*76,1742683060999
NMEA,$GBGSV,7,5,27,33,83,300,24,39,11,031,20,41,31,265,33,42,36,079,26,3*78,1742683060999
NMEA,$GBGSV,7,6,27,24,19,124,17,26,27,071,13,27,33,297,14,28,38,240,09,5*7E,1742683060999
NMEA,$GBGSV,7,7,27,33,83,300,15,41,31,265,12,42,36,079,21,5*40,1742683060999
NMEA,$GAGSV,3,1,06,04,53,224,26,11,60,290,23,27,08,050,19,36,15,319,20,7*71,1742683060999
NMEA,$GAGSV,3,2,06,11,,,15,1*76,1742683060999
NMEA,$GAGSV,3,3,06,11,,,,2*70,1742683060999
NMEA,$GNRMC,223741.00,A,5256.396713,N,00111.053938,W,000.6,016.6,220325,,E,A*1D,1742683060999
NMEA,$GPPNT,223741.00,N,-432.929726,3,0,0.000000,0*0A,1742683060999
NMEA,$GNGGA,223742.00,5256.396922,N,00111.054251,W,1,16,0.8,90.8,M,,M,,*45,1742683061980
NMEA,$GNGSA,A,3,36,4,6,7,9,11,16,20,26,30,,,1.6,0.8,1.3,1*37,1742683061980
NMEA,$GNGSA,A,3,65,71,72,73,74,87,88,,,,,,1.6,0.8,1.3,2*37,1742683061980
NMEA,$GNGSA,A,3,4,11,27,36,,,,,,,,,1.6,0.8,1.3,3*0A,1742683061980
NMEA,$GNGSA,A,3,9,14,16,24,26,27,28,33,39,41,42,45,1.6,0.8,1.3,4*07,1742683061980
NMEA,$GPGSV,5,1,14,03,07,106,22,04,43,063,24,06,62,225,26,07,34,156,26,1*63,1742683061980
NMEA,$GPGSV,5,2,14,09,77,082,28,11,51,288,28,16,05,065,27,20,28,293,27,1*62,1742683061980
NMEA,$GPGSV,5,3,14,26,09,039,16,30,08,182,14,1*62,1742683061980
NMEA,$GPGSV,5,4,14,36,,,30,1*66,1742683061980
NMEA,$GPGSV,5,5,14,03,07,106,16,06,62,225,15,09,77,082,22,8*5C,1742683061980
NMEA,$GLGSV,2,1,07,65,32,264,32,71,30,062,16,72,75,002,23,73,28,064,25,1*76,1742683061980
NMEA,$GLGSV,2,2,07,74,17,112,17,87,40,206,18,88,48,300,31,1*45,1742683061980
NMEA,$GBGSV,7,1,27,09,35,052,14,14,65,073,19,16,17,034,09,24,20,124,17,1*78,1742683061980
NMEA,$GBGSV,7,2,27,26,27,071,22,27,33,297,24,28,38,240,27,33,83,300,26,1*70,1742683061980
NMEA,$GBGSV,7,3,27,39,11,031,19,41,31,265,31,42,36,079,23,45,06,020,09,1*73,1742683061980
NMEA,$GBGSV,7,4,27,24,20,124,11,26,27,071,25,27,33,297,22,28,38,240,27,3*7A,1742683061980
NMEA,$GBGSV,7,5,27,33,83,300,25,39,11,031,20,41,31,265,32,42,36,079,26,3*78,1742683061980
NMEA,$GBGSV,7,6,27,24,20,124,17,26,27,071,14,27,33,297,15,28,38,240,10,5*7A,1742683061980
NMEA,$GBGSV,7,7,27,33,83,301,14,41,31,265,11,42,36,079,20,5*42,1742683061980
NMEA,$GAGSV,3,1,06,04,53,224,26,11,60,290,23,27,08,050,19,36,15,319,11,7*73,1742683061980
NMEA,$GAGSV,3,2,06,11,,,14,1*77,1742683061980
NMEA,$GAGSV,3,3,06,11,,,,2*70,1742683061980
NMEA,$GNRMC,223742.00,A,5256.396922,N,00111.054251,W,000.3,016.6,220325,,E,A*14,1742683061980
NMEA,$GPPNT,223742.00,N,-433.784137,3,0,0.000000,0*07,1742683061980
NMEA,$GNGGA,223743.00,5256.396976,N,00111.054381,W,1,17,0.8,90.9,M,,M,,*49,1742683063016
NMEA,$GNGSA,A,3,36,4,6,7,9,11,16,20,26,30,,,1.5,0.8,1.3,1*34,1742683063016
NMEA,$GNGSA,A,3,65,71,72,73,74,87,88,,,,,,1.5,0.8,1.3,2*34,1742683063016
NMEA,$GNGSA,A,3,4,11,27,36,,,,,,,,,1.5,0.8,1.3,3*09,1742683063016
NMEA,$GNGSA,A,3,9,14,16,24,26,27,28,33,39,41,42,45,1.5,0.8,1.3,4*04,1742683063016
NMEA,$GPGSV,5,1,14,03,07,106,23,04,43,063,23,06,62,225,27,07,34,156,25,1*67,1742683063016
NMEA,$GPGSV,5,2,14,09,77,082,30,11,51,288,28,16,05,065,27,20,28,293,28,1*64,1742683063016
NMEA,$GPGSV,5,3,14,26,09,039,16,30,08,182,13,1*65,1742683063016
NMEA,$GPGSV,5,4,14,36,,,29,1*6E,1742683063016
NMEA,$GPGSV,5,5,14,03,07,106,15,06,62,225,15,09,77,082,20,8*5D,1742683063016
NMEA,$GLGSV,2,1,07,65,32,264,32,71,30,062,18,72,75,002,23,73,28,064,25,1*78,1742683063016
NMEA,$GLGSV,2,2,07,74,17,112,17,87,40,206,18,88,48,300,31,1*45,1742683063016
NMEA,$GBGSV,7,1,27,09,35,052,14,14,65,073,19,16,17,034,09,24,20,124,17,1*78,1742683063016
NMEA,$GBGSV,7,2,27,26,27,071,21,27,33,297,22,28,38,240,27,33,83,300,27,1*74,1742683063016
NMEA,$GBGSV,7,3,27,39,11,031,20,41,31,265,31,42,36,079,23,45,06,020,09,1*79,1742683063016
NMEA,$GBGSV,7,4,27,24,20,124,10,26,27,071,24,27,33,297,23,28,38,240,28,3*74,1742683063016
NMEA,$GBGSV,7,5,27,33,83,300,24,39,11,031,20,41,31,265,32,42,36,079,26,3*79,1742683063016
NMEA,$GBGSV,7,6,27,24,20,124,17,26,27,071,14,27,33,297,15,28,38,240,10,5*7A,1742683063016
NMEA,$GBGSV,7,7,27,33,83,301,14,41,31,265,11,42,36,079,20,5*42,1742683063016
NMEA,$GAGSV,3,1,06,04,53,224,27,11,60,290,24,27,08,050,19,36,15,319,15,7*71,1742683063016
NMEA,$GAGSV,3,2,06,11,,,14,1*77,1742683063016
NMEA,$GAGSV,3,3,06,11,,,,2*70,1742683063016
NMEA,$GNRMC,223743.00,A,5256.396976,N,00111.054381,W,000.3,016.6,220325,,E,A*18,1742683063016
NMEA,$GPPNT,223743.00,N,-434.548982,3,0,0.000000,0*05,1742683063016
NMEA,$GNGGA,223744.00,5256.396982,N,00111.054633,W,1,17,0.8,91.0,M,,M,,*41,1742683064022
NMEA,$GNGSA,A,3,36,4,6,7,9,11,16,20,26,30,,,1.5,0.8,1.3,1*34,1742683064022
NMEA,$GNGSA,A,3,65,71,72,73,74,87,88,,,,,,1.5,0.8,1.3,2*34,1742683064022
NMEA,$GNGSA,A,3,4,11,27,36,,,,,,,,,1.5,0.8,1.3,3*09,1742683064022
NMEA,$GNGSA,A,3,9,14,16,24,26,27,28,33,39,41,42,45,1.5,0.8,1.3,4*04,1742683064022
NMEA,$GPGSV,5,1,14,03,07,106,24,04,43,063,23,06,62,225,26,07,34,156,26,1*62,1742683064022
NMEA,$GPGSV,5,2,14,09,77,082,29,11,51,288,29,16,05,065,27,20,28,293,27,1*62,1742683064022
NMEA,$GPGSV,5,3,14,26,09,039,16,30,08,182,14,1*62,1742683064022
NMEA,$GPGSV,5,4,14,36,,,29,1*6E,1742683064022
NMEA,$GPGSV,5,5,14,03,07,106,15,06,62,225,15,09,77,082,20,8*5D,1742683064022
NMEA,$GLGSV,2,1,07,65,32,264,32,71,30,062,18,72,75,002,24,73,28,064,24,1*7E,1742683064022
NMEA,$GLGSV,2,2,07,74,17,112,17,87,40,206,18,88,48,300,31,1*45,1742683064022
NMEA,$GBGSV,7,1,27,09,35,052,14,14,65,073,19,16,17,034,09,24,20,124,17,1*78,1742683064022
NMEA,$GBGSV,7,2,27,26,27,071,21,27,33,297,24,28,38,240,26,33,83,300,26,1*72,1742683064022
NMEA,$GBGSV,7,3,27,39,11,031,19,41,31,265,32,42,36,079,23,45,06,020,09,1*70,1742683064022
NMEA,$GBGSV,7,4,27,24,20,124,11,26,27,071,24,27,33,297,22,28,38,240,27,3*7B,1742683064022
NMEA,$GBGSV,7,5,27,33,83,300,25,39,11,031,21,41,31,265,33,42,36,079,26,3*78,1742683064022
NMEA,$GBGSV,7,6,27,24,20,124,17,26,27,071,14,27,33,297,15,28,38,240,10,5*7A,1742683064022
NMEA,$GBGSV,7,7,27,33,83,301,14,41,31,265,12,42,36,079,20,5*41,1742683064022
NMEA,$GAGSV,3,1,06,04,53,224,27,11,60,290,23,27,08,050,19,36,15,319,15,7*76,1742683064022
NMEA,$GAGSV,3,2,06,11,,,15,1*76,1742683064022
NMEA,$GAGSV,3,3,06,11,,,,2*70,1742683064022
NMEA,$GNRMC,223744.00,A,5256.396982,N,00111.054633,W,000.1,016.6,220325,,E,A*1A,1742683064022
NMEA,$GPPNT,223744.00,N,-434.001737,3,0,0.000000,0*0A,1742683064022
NMEA,$GNGGA,223745.00,5256.396867,N,00111.054896,W,1,17,0.8,91.1,M,,M,,*4A,1742683065030
NMEA,$GNGSA,A,3,36,4,6,7,9,11,16,20,26,30,,,1.5,0.8,1.3,1*34,1742683065030
NMEA,$GNGSA,A,3,65,71,72,73,74,87,88,,,,,,1.5,0.8,1.3,2*34,1742683065030
NMEA,$GNGSA,A,3,4,11,27,36,,,,,,,,,1.5,0.8,1.3,3*09,1742683065030
NMEA,$GNGSA,A,3,9,14,16,24,26,27,28,33,39,41,42,45,1.5,0.8,1.3,4*04,1742683065030
NMEA,$GPGSV,5,1,14,03,07,106,24,04,43,063,22,06,62,225,26,07,34,156,25,1*60,1742683065030
NMEA,$GPGSV,5,2,14,09,77,082,30,11,51,288,29,16,05,065,27,20,28,293,26,1*6B,1742683065030
NMEA,$GPGSV,5,3,14,26,09,039,16,30,08,182,14,1*62,1742683065030
NMEA,$GPGSV,5,4,14,36,,,29,1*6E,1742683065030
NMEA,$GPGSV,5,5,14,03,07,106,15,06,62,225,16,09,77,082,21,8*5F,1742683065030
NMEA,$GLGSV,2,1,07,65,32,264,32,71,30,062,18,72,75,002,24,73,28,064,24,1*7E,1742683065030
NMEA,$GLGSV,2,2,07,74,17,112,16,87,40,206,18,88,48,300,31,1*44,1742683065030
NMEA,$GBGSV,7,1,27,09,35,052,13,14,65,073,19,16,17,034,09,24,20,124,17,1*7F,1742683065030
NMEA,$GBGSV,7,2,27,26,27,071,22,27,33,297,24,28,38,240,27,33,83,300,26,1*70,1742683065030
NMEA,$GBGSV,7,3,27,39,11,031,19,41,31,265,32,42,36,079,21,45,06,020,09,1*72,1742683065030
NMEA,$GBGSV,7,4,27,24,20,124,13,26,27,071,24,27,33,297,22,28,38,240,28,3*76,1742683065030
NMEA,$GBGSV,7,5,27,33,83,300,25,39,11,031,21,41,31,265,30,42,36,079,26,3*7B,1742683065030
NMEA,$GBGSV,7,6,27,24,20,124,17,26,27,071,13,27,33,297,15,28,38,240,11,5*7C,1742683065030
NMEA,$GBGSV,7,7,27,33,83,301,15,41,31,265,13,42,36,079,20,5*41,1742683065030
NMEA,$GAGSV,3,1,06,04,53,224,27,11,60,290,24,27,08,050,19,36,15,319,16,7*72,1742683065030
NMEA,$GAGSV,3,2,06,11,,,16,1*75,1742683065030
NMEA,$GAGSV,3,3,06,11,,,,2*70,1742683065030
NMEA,$GNRMC,223745.00,A,5256.396867,N,00111.054896,W,000.2,016.6,220325,,E,A*13,1742683065030
NMEA,$GPPNT,223745.00,N,-434.218495,3,0,0.000000,0*0A,1742683065030
NMEA,$GNGGA,223746.00,5256.396539,N,00111.054899,W,1,18,0.8,91.0,M,,M,,*4E,1742683065942
NMEA,$GNGSA,A,3,36,4,6,7,9,11,16,20,26,30,,,1.5,0.8,1.3,1*34,1742683065942
NMEA,$GNGSA,A,3,65,71,72,73,74,87,88,,,,,,1.5,0.8,1.3,2*34,1742683065942
NMEA,$GNGSA,A,3,4,11,27,36,,,,,,,,,1.5,0.8,1.3,3*09,1742683065942
NMEA,$GNGSA,A,3,9,14,24,26,27,28,33,39,41,42,45,,1.5,0.8,1.3,4*03,1742683065942
NMEA,$GPGSV,5,1,14,03,07,106,23,04,43,063,22,06,62,225,28,07,34,156,25,1*69,1742683065942
NMEA,$GPGSV,5,2,14,09,77,082,29,11,51,288,28,16,05,065,27,20,28,293,27,1*63,1742683065942
NMEA,$GPGSV,5,3,14,26,09,039,18,30,08,182,13,1*6B,1742683065942
NMEA,$GPGSV,5,4,14,36,,,29,1*6E,1742683065942
NMEA,$GPGSV,5,5,14,03,07,106,16,06,62,225,17,09,77,082,23,8*5F,1742683065942
NMEA,$GLGSV,2,1,07,65,32,264,33,71,30,062,19,72,75,002,23,73,28,064,25,1*78,1742683065942
NMEA,$GLGSV,2,2,07,74,17,112,17,87,40,206,18,88,48,300,29,1*4C,1742683065942
NMEA,$GBGSV,7,1,26,09,35,052,13,14,65,073,19,24,20,124,17,26,27,071,23,1*77,1742683065942
NMEA,$GBGSV,7,2,26,27,33,297,24,28,38,240,26,33,83,300,23,39,11,031,19,1*72,1742683065942
NMEA,$GBGSV,7,3,26,41,31,265,33,42,36,079,24,45,06,020,09,1*47,1742683065942
NMEA,$GBGSV,7,4,26,24,20,124,13,26,27,071,25,27,33,297,22,28,38,240,27,3*79,1742683065942
NMEA,$GBGSV,7,5,26,33,83,300,25,39,11,031,21,41,31,265,32,42,36,079,28,3*76,1742683065942
NMEA,$GBGSV,7,6,26,24,20,124,16,26,27,071,13,27,33,297,16,28,38,240,12,5*7C,1742683065942
NMEA,$GBGSV,7,7,26,33,83,301,13,41,31,265,14,42,36,079,21,5*40,1742683065942
NMEA,$GAGSV,3,1,06,04,53,224,27,11,60,290,25,27,08,050,19,36,15,319,17,7*72,1742683065942
NMEA,$GAGSV,3,2,06,11,,,16,1*75,1742683065942
NMEA,$GAGSV,3,3,06,11,,,,2*70,1742683065942
NMEA,$GNRMC,223746.00,A,5256.396539,N,00111.054899,W,000.5,016.6,220325,,E,A*1E,1742683065942
NMEA,$GPPNT,223746.00,N,-434.455706,3,0,0.000000,0*0F,1742683065942
